{"user_id" :4, "name" : "Ian Kehoe", "distance" :10.566936271878287, "latitude" :"53.2451022", "longitude" :"-6.238335"}
{"user_id" :5, "name" : "Nora Dempsey", "distance" :23.287320646758555, "latitude" :"53.1302756", "longitude" :"-6.2397222"}
{"user_id" :6, "name" : "Theresa Enright", "distance" :24.08536000409743, "latitude" :"53.1229599", "longitude" :"-6.2705202"}
{"user_id" :8, "name" : "Eoin Ahearn", "distance" :83.53253118271577, "latitude" :"54.0894797", "longitude" :"-6.18671"}
{"user_id" :11, "name" : "Richard Finnegan", "distance" :38.13756807966009, "latitude" :"53.008769", "longitude" :"-6.1056711"}
{"user_id" :12, "name" : "Christina McArdle", "distance" :41.76872548157621, "latitude" :"52.986375", "longitude" :"-6.043701"}
{"user_id" :13, "name" : "Olive Ahearn", "distance" :62.23170226419019, "latitude" :"53.0", "longitude" :"-7.0"}
{"user_id" :15, "name" : "Michael Ahearn", "distance" :43.72248744858545, "latitude" :"52.966", "longitude" :"-6.463"}
{"user_id" :17, "name" : "Patricia Cahill", "distance" :96.07859924853106, "latitude" :"54.180238", "longitude" :"-5.920898"}
{"user_id" :23, "name" : "Eoin Gallagher", "distance" :82.69492613311675, "latitude" :"54.080556", "longitude" :"-6.361944"}
{"user_id" :24, "name" : "Rose Enright", "distance" :89.031033839548, "latitude" :"54.133333", "longitude" :"-6.433333"}
{"user_id" :26, "name" : "Stephen McArdle", "distance" :98.87459927209608, "latitude" :"53.038056", "longitude" :"-7.653889"}
{"user_id" :29, "name" : "Oliver Ahearn", "distance" :72.2017855173392, "latitude" :"53.74452", "longitude" :"-7.11167"}
{"user_id" :30, "name" : "Nick Enright", "distance" :82.64285001108648, "latitude" :"53.761389", "longitude" :"-7.2875"}
{"user_id" :31, "name" : "Alan Behan", "distance" :44.290822359545736, "latitude" :"53.1489345", "longitude" :"-6.8422408"}
{"user_id" :39, "name" : "Lisa Ahearn", "distance" :38.35801476278225, "latitude" :"53.0033946", "longitude" :"-6.3877505"}
